[
  {
    "address": "Namangan viloyati, Namangan tuman, Sho'rqo'rg'on qishlogi, Bogbon ko'chasi 2-uy",
    "well_id": "07c97e86-5e65-4acd-9991-d39fa52e8566",
    "longitude": "71.7186184",
    "status": false,
    "number": "998936863646",
    "latitude": "40.925322",
    "name": "Sho'rqo'rg'on 1",
    "salinity_start": null,
    "salinity_end": null,
    "depth": "300",
    "time": "2024-08-12T09:32:21.939018"
  },
  {
    "address": "Namangan viloyati, Uychi tumani, Jiydakapa qishlogi",
    "well_id": "2abe6eb3-f062-4f99-9313-c48ba4f5b4f9",
    "longitude": "71.79173",
    "status": true,
    "number": "998946174223",
    "latitude": "40.95814",
    "name": "Uychi tumani 123",
    "salinity_start": null,
    "salinity_end": null,
    "depth": "300",
    "time": "2024-08-12T09:32:21.939018"
  },
  {
    "address": "Namangan viloyati, Uychi Tumani, Jiydakapa qishlogi",
    "well_id": "035e6b0d-58e2-4ff8-b880-ab592db85574",
    "longitude": "71.781093",
    "status": true,
    "number": "998943874243",
    "latitude": "40.960708",
    "name": "Uychi tumani 121",
    "salinity_start": null,
    "salinity_end": null,
    "depth": "300",
    "time": "2024-08-12T09:32:21.939018"
  },
  {
    "address": "Namangan viloyati, Uychi tumani",
    "well_id": "13ef8565-047e-4b12-81ee-d13032648984",
    "longitude": "71.77893",
    "status": false,
    "number": "998942664223",
    "latitude": "40.96112",
    "name": "Uychi tumani 128",
    "salinity_start": null,
    "salinity_end": null,
    "depth": "300",
    "time": "2024-08-12T09:32:21.939018"
  },
  {
    "address": "Namangan viloyati Uychi tumani",
    "well_id": "0b969187-9e9d-4a01-9151-bf32fdc503da",
    "longitude": "71.79469",
    "status": false,
    "number": "998990201458",
    "latitude": "40.9764",
    "name": "Uychi tumani 86",
    "salinity_start": null,
    "salinity_end": null,
    "depth": "216",
    "time": "2024-08-12T09:32:21.939018"
  },
  {
    "address": "Namangan viloyati, Uychi tumani",
    "well_id": "04495271-40f6-43b9-9032-0e5416dee1e4",
    "longitude": "71.76036",
    "status": true,
    "number": "998942484243",
    "latitude": "40.997822",
    "name": "Uychi tumani 50",
    "salinity_start": null,
    "salinity_end": null,
    "depth": "300",
    "time": "2024-08-12T09:32:21.939018"
  },
  {
    "address": "Namanagan Viloyati Uychi timani",
    "well_id": "2e282ce1-e0b6-4524-843a-8837e9c36d95",
    "longitude": "71.76057",
    "status": false,
    "number": "998990011459",
    "latitude": "40.99575",
    "name": "Uychi tumani 52",
    "salinity_start": null,
    "salinity_end": null,
    "depth": "300",
    "time": "2024-08-12T09:32:21.939018"
  },
  {
    "address": "Namangan Viloyati, Uychi tumani",
    "well_id": "39ad4696-36ba-4555-b75c-07389597c5ba",
    "longitude": "71.76194",
    "status": false,
    "number": "998773700964",
    "latitude": "40.99255",
    "name": "Uychi tumani 55",
    "salinity_start": null,
    "salinity_end": null,
    "depth": "300",
    "time": "2024-08-12T09:32:21.939018"
  },
  {
    "address": "Namangan viloyati Uychi tumani",
    "well_id": "f4360e32-40b2-48c8-a638-5005910713ed",
    "longitude": "71.76364",
    "status": false,
    "number": "998990011451",
    "latitude": "40.98756",
    "salinity_start": null,
    "salinity_end": null,
    "name": "Uychi tumani 56",
    "depth": "300",
    "time": "2024-08-12T09:32:21.939018"
  },
  {
    "address": "Namanagan viloyati Uychi tumani",
    "well_id": "c15def8b-d3c0-49f9-9d4c-c2fb4e64505f",
    "longitude": "71.73585",
    "status": true,
    "number": "998993581424",
    "latitude": "41.01678",
    "name": "Uychi tumani 44",
    "salinity_start": null,
    "salinity_end": null,
    "depth": "230",
    "time": "2024-08-12T09:32:21.939018"
  },
  {
    "address": "Namangan viloyati, Uychi tumani",
    "well_id": "56b5fd86-159f-463d-9755-5c9e2955185f",
    "longitude": "71.901517",
    "status": false,
    "number": "998990031450",
    "latitude": "40.982413",
    "salinity_start": null,
    "salinity_end": null,
    "name": "Uychi tumani 106",
    "depth": "300",
    "time": "2024-08-12T09:32:21.939018"
  },
  {
    "address": "Namangan viloyati, Uychi tumani",
    "well_id": "05f18482-4201-4b8f-ba20-38436da3e71f",
    "longitude": "71.877192",
    "status": true,
    "number": "998991701424",
    "latitude": "40.999185",
    "name": "Uychi tumani 72 A",
    "salinity_start": null,
    "salinity_end": null,
    "depth": "290",
    "time": "2024-08-12T09:32:21.939018"
  },
  {
    "address": "Namangan viloyati, Uychi tumani",
    "well_id": "6ebea201-1e39-44c0-8099-fa7a3d7245ca",
    "longitude": "71.885551",
    "status": true,
    "number": "998995111424",
    "latitude": "41.005295",
    "name": "Uychi tumani 100 ",
    "salinity_start": null,
    "salinity_end": null,
    "depth": "300",
    "time": "2024-08-12T09:32:21.939018"
  },
  {
    "address": "Namangan viloyati, Uychi tumani",
    "well_id": "d7f7f478-a483-41f5-928b-4a400e9e3c31",
    "longitude": "71.877708",
    "status": true,
    "number": "998994041424",
    "latitude": "41.011452",
    "name": "Uychi tumani 94",
    "salinity_start": null,
    "salinity_end": null,
    "depth": "230",
    "time": "2024-08-12T09:32:21.939018"
  },
  {
    "address": "Namangan viloyati, Uychi tumani",
    "well_id": "f2c5b3bb-74b1-458d-9ae6-f0434a34f648",
    "longitude": "71.873144",
    "status": false,
    "number": "998992801424",
    "latitude": "41.015062",
    "salinity_start": null,
    "salinity_end": null,
    "name": "Uychi tumani 91",
    "depth": "300",
    "time": "2024-08-12T09:32:21.939018"
  },
  {
    "address": "Namangan viloyati, Uychi tumani",
    "well_id": "a9e9dde4-9943-47f1-9a3e-3f0c1fbc5bd3",
    "longitude": "71.869352",
    "status": true,
    "number": "998993201424",
    "latitude": "41.017839",
    "salinity_start": null,
    "salinity_end": null,
    "name": "Uychi tumani 41",
    "depth": "230",
    "time": "2024-08-12T09:32:21.939018"
  },
  {
    "address": "Sirdaryo Viloyati Sayhunobod t.",
    "well_id": "67efdcd9-ab4a-439f-a540-28b643c49973",
    "longitude": "68.892004",
    "status": true,
    "number": "998993452563",
    "salinity_start": "2300",
    "salinity_end": "2600",
    "latitude": "40.628175",
    "name": "Sayhunobod t. 188",
    "depth": "400",
    "time": "2024-08-20T17:35:12.537835"
  },
  {
    "address": "Sirdaryo Viloyati Sayhunobod t.",
    "well_id": "1b610e23-e6b2-4c67-ab5b-b93b8602c8d9",
    "longitude": "68.8959075",
    "status": true,
    "number": "998993454707",
    "latitude": "40.637539",
    "salinity_start": "2500",
    "salinity_end": "2800",
    "name": "Sayhunobod t. 210",
    "depth": "400",
    "time": "2024-08-20T17:35:12.537835"
  },
  {
    "address": "Sirdaryo Viloyati Sayhunobod t.",
    "well_id": "2a7fb97e-0c6b-44c5-b31f-6c91f76ffd46",
    "longitude": "68.906519",
    "status": true,
    "number": "998993456375",
    "latitude": "40.630202",
    "salinity_start": "1900",
    "salinity_end": "2100",
    "name": "Sayhunobod t. 196",
    "depth": "400",
    "time": "2024-08-20T17:35:12.537835"
  },
  {
    "address": "Sirdaryo Viloyati Sayhunobod t.",
    "well_id": "5cf890a9-301e-4148-b6ed-0949e1037a58",
    "longitude": "69.007475",
    "status": true,
    "number": "998993456395",
    "latitude": "40.608525",
    "salinity_start": "1900",
    "salinity_end": "2200",
    "name": "Sayhunobod t. 239",
    "depth": "400",
    "time": "2024-08-20T17:35:12.537835"
  },
  {
    "address": "Sirdaryo Viloyati Sayhunobod t.",
    "well_id": "395f560b-633e-4c56-b4ce-9f1990038422",
    "longitude": "",
    "status": true,
    "number": "998993456425",
    "latitude": "",
    "salinity_start": "2300",
    "salinity_end": "2600",
    "name": "Sayhunobod t. 203",
    "depth": "500",
    "time": "2024-08-20T17:35:12.537835"
  },
  {
    "address": "Sirdaryo Viloyati Sayhunobod t.",
    "well_id": "e703589e-8507-400c-ae5f-fd992c04a9fb",
    "longitude": "68.956381",
    "status": true,
    "number": "998993456427",
    "latitude": "40.594683",
    "salinity_start": "2000",
    "salinity_end": "2300",
    "name": "Sayhunobod t. 200",
    "depth": "400",
    "time": "2024-08-20T17:35:12.537835"
  },
  {
    "address": "Sirdaryo Viloyati Sayhunobod t.",
    "well_id": "a35e3380-e373-4257-a6b0-a73fc56739d7",
    "longitude": "",
    "status": true,
    "number": "998993456433",
    "latitude": "",
    "salinity_start": "1800",
    "salinity_end": "2100",
    "name": "Sayhunobod t. 193",
    "depth": "400",
    "time": "2024-08-20T17:35:12.537835"
  },
  {
    "address": "Sirdaryo Viloyati Sayhunobod t.",
    "well_id": "af3b11e3-36de-4089-9d26-1271141b8279",
    "longitude": "",
    "status": true,
    "number": "998993456437",
    "latitude": "",
    "salinity_start": "2200",
    "salinity_end": "2500",
    "name": "Sayhunobod t. 208",
    "depth": "400",
    "time": "2024-08-20T17:35:12.537835"
  },
  {
    "address": "Sirdaryo Viloyati Sirdaryo t.",
    "well_id": "36503b20-e2d9-4bbf-a98c-05f63fdede96",
    "longitude": "",
    "status": true,
    "number": "998993456438",
    "latitude": "",
    "name": "Sirdaryo t. 189",
    "salinity_start": "1600",
    "salinity_end": "1900",
    "depth": "400",
    "time": "2024-08-20T17:35:12.537835"
  },
  {
    "address": "Sirdaryo Viloyati Sirdaryo t.",
    "well_id": "b47c06df-a2e2-4315-9f67-81c2ba9f9e51",
    "longitude": "",
    "status": true,
    "number": "998993456442",
    "latitude": "",
    "name": "Sirdaryo t. 153",
    "salinity_start": "2000",
    "salinity_end": "2400",
    "depth": "400",
    "time": "2024-08-20T17:35:12.537835"
  }
]